City_ID,City,Lat,Lng,Max Temp,Humidity,Cloudiness,Wind Speed,Country,Date
0,mata-utu,-13.2816,-176.1745,28.35,76,100,6.64,WF,1702256497
1,bodaybo,57.8506,114.1933,-30.12,98,100,0.21,RU,1702256498
2,bredasdorp,-34.5322,20.0403,15.14,82,0,1.24,ZA,1702256498
3,adamstown,-25.066,-130.1015,21.29,57,0,3.19,PN,1702256499
4,nar'yan-mar,67.6713,53.087,-22.72,91,100,4.92,RU,1702255914
5,mhamid,29.82,-5.72,15.79,36,11,2.02,MA,1702255919
6,ubari,26.5921,12.7805,10.93,72,0,3.18,LY,1702256471
7,keflavik,64.0049,-22.5624,1.24,100,100,4.12,IS,1702256500
8,lhasa,29.65,91.1,-4.31,53,0,0.72,CN,1702256500
9,tralee,52.2704,-9.7026,9.18,88,25,5.58,IE,1702256501
10,stanley,54.868,-1.6985,5.71,96,75,3.09,GB,1702256501
11,port-aux-francais,-49.35,70.2167,4.01,79,74,9.47,TF,1702256493
12,remire-montjoly,4.9167,-52.2667,26.02,89,20,0.0,GF,1702256502
13,codrington,-38.2667,141.9667,18.55,72,100,6.97,AU,1702256502
14,albany,42.6001,-73.9662,7.87,90,100,1.79,US,1702256470
15,mugia,43.1041,-9.2179,18.28,86,100,11.2,ES,1702256503
16,nao me toque,-28.4592,-52.8208,16.86,95,31,1.5,BR,1702256504
17,invercargill,-46.4,168.35,16.3,46,39,6.72,NZ,1702256482
18,midvagur,62.0511,-7.1939,7.46,87,100,3.6,FO,1702256505
19,waitangi,-43.9535,-176.5597,11.64,59,0,2.24,NZ,1702256500
20,edinburgh of the seven seas,-37.0676,-12.3116,13.68,70,97,7.42,SH,1702256506
21,port douglas,-16.4833,145.4667,29.7,57,26,3.67,AU,1702256506
22,pandan,14.0453,124.1694,28.37,79,68,4.69,PH,1702256506
23,sinop,41.7711,34.8709,6.02,82,100,3.22,TR,1702256507
24,grytviken,-54.2811,-36.5092,5.62,93,100,6.73,GS,1702256507
25,mount gambier,-37.8333,140.7667,15.4,93,100,5.78,AU,1702256507
26,thompson,55.7435,-97.8558,-15.91,92,100,2.06,CA,1702256305
27,college,64.8569,-147.8028,-23.64,78,100,1.78,US,1702256508
28,sucua,-2.4667,-78.1667,20.81,98,77,1.05,EC,1702256509
29,ryotsu-minato,38.0833,138.4333,7.76,65,79,5.34,JP,1702256509
30,kramators'k,48.723,37.5563,-0.14,90,100,5.32,UA,1702256509
31,arica,-18.475,-70.3042,21.75,73,40,2.06,CL,1702256093
32,blackmans bay,-43.0167,147.3167,22.51,49,8,0.89,AU,1702256509
33,katsuura,35.1333,140.3,13.01,79,100,2.22,JP,1702256510
34,avarua,-21.2078,-159.775,27.03,78,100,12.35,CK,1702256510
35,san antonio de pale,-1.4014,5.6325,27.37,79,100,5.85,GQ,1702256510
36,neiafu,-18.65,-173.9833,29.38,61,20,2.57,TO,1702256510
37,cambebba,-3.6209,-38.8291,28.2,73,27,4.85,BR,1702256510
38,papatowai,-46.5619,169.4708,17.46,43,83,6.23,NZ,1702256511
39,cajuru,-21.2753,-47.3042,18.34,97,100,2.14,BR,1702256511
40,atafu village,-8.5421,-172.5159,28.78,76,100,6.05,TK,1702256511
41,aasiaat,68.7098,-52.8699,-3.61,89,100,6.09,GL,1702256266
42,camana,-16.6228,-72.7111,20.26,81,100,2.77,PE,1702256512
43,georgetown,5.4112,100.3354,27.96,94,20,1.54,MY,1702256274
44,berdigestyakh,62.0989,126.6992,-27.45,92,100,4.7,RU,1702256512
45,udachny,66.4167,112.4,-26.07,95,100,5.35,RU,1702256512
46,inari,68.906,27.0288,-13.89,91,100,4.44,FI,1702256513
47,desaguadero,-16.5656,-69.0417,11.35,68,74,5.16,PE,1702256513
48,tazovsky,67.4667,78.7,-25.07,97,100,4.69,RU,1702256513
49,tolanaro,-25.0319,46.9987,25.04,94,20,7.2,MG,1702256242
50,yaren,-0.5472,166.916,28.59,73,56,0.75,NR,1702256514
51,kuala terengganu,5.3302,103.1408,25.97,94,20,1.54,MY,1702256514
52,broome,42.2506,-75.833,4.45,95,100,6.17,US,1702256514
53,ushuaia,-54.8,-68.3,7.81,49,0,5.66,AR,1702256457
54,kodiak,57.79,-152.4072,4.72,98,100,6.95,US,1702256515
55,tual,-5.6667,132.75,28.86,78,58,6.56,ID,1702256515
56,nuku'alofa,-21.1333,-175.2,27.19,65,40,3.09,TO,1702256515
57,puerto quijarro,-17.7833,-57.7667,27.09,71,100,2.63,BO,1702256515
58,port isabel,26.0734,-97.2086,14.45,54,0,3.95,US,1702256516
59,wailua homesteads,22.0669,-159.378,26.59,81,2,2.68,US,1702256516
60,tamanrasset,22.785,5.5228,12.95,28,0,4.63,DZ,1702256517
61,bethel,41.3712,-73.414,15.86,89,100,3.6,US,1702256369
62,hasaki,35.7333,140.8333,14.05,67,100,2.14,JP,1702256517
63,nola,40.922,14.5329,12.74,85,100,1.89,IT,1702256517
64,ilulissat,69.2167,-51.1,-1.99,74,100,5.66,GL,1702256476
65,glace bay,46.1969,-59.957,5.99,91,100,6.69,CA,1702256260
66,el jadid,33.2549,-8.506,18.36,74,39,3.03,MA,1702256518
67,puerto natales,-51.7236,-72.4875,6.4,87,63,2.06,CL,1702256495
68,geraldton,-28.7667,114.6,29.23,14,0,12.35,AU,1702256518
69,margate,51.3813,1.3862,12.17,76,59,8.05,GB,1702256518
70,ancud,-41.8697,-73.8203,12.26,87,100,2.16,CL,1702256519
71,dryden,49.7833,-92.7503,-5.84,86,100,2.06,CA,1702256519
72,pundong,-7.9522,110.3486,27.97,69,98,2.99,ID,1702256519
73,iqaluit,63.7506,-68.5145,-4.15,79,100,6.71,CA,1702256519
74,constantia,44.1833,28.65,0.39,85,93,4.22,RO,1702256289
75,bilibino,68.0546,166.4372,-25.88,98,34,2.14,RU,1702256240
76,paoua,7.2427,16.4406,21.54,27,100,1.56,CF,1702256520
77,isla vista,34.4133,-119.861,19.99,42,0,1.54,US,1702256521
78,luderitz,-26.6481,15.1594,16.83,69,0,8.35,NA,1702256521
79,cadale,2.7603,46.3222,26.73,80,35,5.39,SO,1702256522
80,ust-nera,64.5667,143.2,-20.76,98,100,3.92,RU,1702256522
81,puerto ayora,-0.7393,-90.3518,24.14,87,35,3.3,EC,1702256522
82,fayzabad,37.1166,70.58,7.61,17,100,1.81,AF,1702256523
83,huarmey,-10.0681,-78.1522,20.38,84,99,4.54,PE,1702256523
84,whitehorse,60.7161,-135.0538,-13.44,83,100,1.54,CA,1702256523
85,el granada,37.5027,-122.4694,14.41,69,0,0.45,US,1702256524
86,port mathurin,-19.6833,63.4167,26.06,76,100,3.69,MU,1702256524
87,mount isa,-20.7333,139.5,28.87,42,9,5.66,AU,1702256459
88,gavrilov posad,56.5597,40.1175,-10.31,94,100,5.58,RU,1702256524
89,qaqortoq,60.7167,-46.0333,-10.05,74,10,2.0,GL,1702256475
90,kibaya,-5.3,36.5667,16.29,97,100,1.47,TZ,1702256525
91,hauterive,46.0901,3.4459,15.42,91,100,3.93,FR,1702256525
92,utrik,11.2278,169.8474,27.16,77,100,8.79,MH,1702256525
93,pacific grove,36.6177,-121.9166,16.72,63,0,4.02,US,1702256407
94,auki,-8.7676,160.7034,29.32,69,38,2.15,SB,1702256270
95,minas de marcona,-15.2119,-75.1103,16.1,77,92,4.56,PE,1702256526
96,port elizabeth,-33.918,25.5701,15.05,92,0,1.54,ZA,1702256526
97,qamdo,31.1667,97.2333,-9.22,66,2,1.95,CN,1702256526
98,imbituba,-28.24,-48.6703,19.83,95,100,6.78,BR,1702256507
99,siniscola,40.5719,9.6922,12.75,69,96,3.97,IT,1702256527
100,dhidhdhoo,6.8833,73.1,28.11,78,100,4.68,MV,1702256527
101,dul'durga,50.6761,113.5931,-28.62,94,7,0.88,RU,1702256527
102,wendelstein,49.3536,11.1483,7.98,81,100,5.14,DE,1702256527
103,sur,22.5667,59.5289,22.13,54,28,1.12,OM,1702256527
104,anadyr,64.75,177.4833,-25.56,75,20,6.0,RU,1702256410
105,prince rupert,54.3161,-130.3201,5.83,79,0,7.2,CA,1702256528
106,hadibu,12.65,54.0333,24.3,72,13,5.03,YE,1702256528
107,lospalos,-8.5186,127.0025,29.2,61,98,0.71,TL,1702256528
108,madimba,-10.4,40.3333,25.62,88,68,1.39,TZ,1702256529
109,wellington,-41.2866,174.7756,19.21,55,15,10.8,NZ,1702256408
110,port alfred,-33.5906,26.891,16.77,94,45,1.45,ZA,1702256529
111,cabinda,-5.55,12.2,28.08,83,100,1.03,AO,1702256529
112,lebu,-37.6167,-73.65,12.91,87,100,8.61,CL,1702256530
113,la passe,45.5549,-0.8967,15.13,88,100,10.74,FR,1702256530
114,arraial do cabo,-22.9661,-42.0278,23.13,79,100,4.45,BR,1702256530
115,vila franca do campo,37.7167,-25.4333,18.27,99,100,4.65,PT,1702256530
116,ola,59.5833,151.2833,-2.14,81,100,8.93,RU,1702256530
117,pimentel,-6.8367,-79.9342,22.16,73,0,8.75,PE,1702256273
118,hamilton,39.1834,-84.5333,1.69,80,100,4.02,US,1702256338
119,vila velha,-20.3297,-40.2925,24.97,82,75,1.54,BR,1702256531
120,vilyuchinsk,52.9306,158.4028,1.15,93,100,2.03,RU,1702256276
121,tiksi,71.6872,128.8694,-25.63,100,100,2.16,RU,1702256532
122,iskateley,67.6803,53.1512,-22.77,91,100,4.92,RU,1702256491
123,susuman,62.7833,148.1667,-22.23,99,86,2.68,RU,1702256532
124,yarmouth,41.7057,-70.2286,16.26,96,100,6.26,US,1702256382
125,arzgir,45.3728,44.2206,-0.74,91,100,6.39,RU,1702256533
126,mariental,-24.6333,17.9667,20.0,17,0,4.35,NA,1702256533
127,mejit,10.2753,170.8646,27.22,74,100,8.92,MH,1702256533
128,sisimiut,66.9395,-53.6735,-3.96,81,100,5.15,GL,1702256534
129,sinabang,2.4803,96.3801,25.58,87,100,1.38,ID,1702256315
130,east london,-33.0153,27.9116,16.28,76,100,1.93,ZA,1702256534
131,punta arenas,-53.15,-70.9167,9.06,61,0,3.09,CL,1702256523
132,tsiombe,-25.3,45.4833,23.73,88,100,1.13,MG,1702256535
133,hermanus,-34.4187,19.2345,15.98,81,0,4.02,ZA,1702256448
134,lagunas,-5.2269,-75.6753,25.24,84,30,1.36,PE,1702256535
135,cozumel,20.5083,-86.9458,22.75,96,100,6.71,MX,1702256414
136,smithers,54.7804,-127.1743,-4.82,93,75,1.03,CA,1702256536
137,gramoteino,54.5368,86.3839,-34.13,100,45,0.04,RU,1702256536
138,saint-francois,46.4154,3.9054,14.69,84,100,4.12,FR,1702256536
139,malabo,3.75,8.7833,24.92,100,20,1.03,GQ,1702256536
140,longyearbyen,78.2186,15.6401,-0.09,74,75,4.63,SJ,1702256510
141,port saint john's,-31.6229,29.5448,18.11,86,100,0.73,ZA,1702256537
142,puerto deseado,-47.7503,-65.8938,17.45,52,99,4.68,AR,1702256537
143,lorengau,-2.0226,147.2712,29.55,74,100,6.5,PG,1702256538
144,yellowknife,62.456,-114.3525,-11.71,85,100,8.75,CA,1702256493
145,margaret river,-33.95,115.0667,22.31,31,0,3.6,AU,1702256538
146,neryungri,56.6709,124.6491,-31.46,94,100,3.3,RU,1702256539
147,west island,-12.1568,96.8225,26.99,74,75,4.63,CC,1702256539
148,princeville,45.7668,-61.2985,7.61,96,100,4.63,CA,1702256539
149,tanaina,61.6269,-149.4281,-3.55,65,100,14.4,US,1702256540
150,madalena,41.2162,-8.3345,15.3,92,100,2.28,PT,1702256540
151,san patricio,28.017,-97.5169,13.8,27,0,2.16,US,1702256540
152,rawah,34.4816,41.9093,15.01,67,100,2.84,IQ,1702256541
153,jamestown,42.097,-79.2353,4.77,90,100,3.6,US,1702256541
154,saipan,15.1355,145.701,27.75,77,13,5.4,MP,1702256541
155,lagunillas,10.1301,-71.2595,27.83,76,1,0.95,VE,1702256541
156,wuchuan,21.4571,110.7659,25.54,74,62,4.27,CN,1702256542
157,afaahiti,-17.75,-149.2833,29.93,82,76,11.11,PF,1702256542
158,boma,7.0805,-2.1697,21.05,57,55,0.71,GH,1702256542
159,mount pearl,47.5166,-52.7813,-1.49,92,0,3.6,CA,1702256543
160,saint croix,17.7397,-64.7388,25.53,80,5,3.58,VI,1702256543
161,kenora,49.8167,-94.4337,-6.46,93,100,3.09,CA,1702256531
162,sorong,-0.8833,131.25,28.74,72,65,1.88,ID,1702256543
163,isafjordur,66.0755,-23.124,-3.33,94,95,2.87,IS,1702256544
164,korla,41.7597,86.1469,-4.31,63,13,0.85,CN,1702256544
165,koulamoutou,-1.1303,12.4736,22.15,100,100,0.68,GA,1702256545
166,price,39.5994,-110.8107,-1.6,53,100,0.56,US,1702256545
167,trzcianka,53.0406,16.4563,2.84,96,100,4.04,PL,1702256139
168,nasugbu,14.1,120.6833,28.57,69,81,4.2,PH,1702256546
169,serowe,-22.3833,26.7167,16.67,96,100,4.16,BW,1702256546
170,olonkinbyen,70.9221,-8.7187,-3.76,61,100,3.9,SJ,1702256546
171,vadso,70.0744,29.7487,-10.91,92,100,10.29,NO,1702256547
172,kill devil hills,36.0307,-75.676,18.88,98,75,6.69,US,1702256547
173,dudinka,69.4058,86.1778,-25.77,97,100,5.36,RU,1702256524
174,kirakira,-10.4544,161.9205,27.66,82,92,0.62,SB,1702256547
175,new norfolk,-42.7826,147.0587,23.17,25,18,1.2,AU,1702256548
176,talodi,10.6325,30.3797,25.18,22,54,2.45,SD,1702256548
177,katsuren-haebaru,26.3369,127.8719,25.01,80,75,2.06,JP,1702256548
178,toliara,-23.35,43.6667,24.98,75,0,2.38,MG,1702256305
179,boyalik,41.2634,28.6314,6.51,90,100,0.63,TR,1702256549
180,rio grande,-32.035,-52.0986,20.06,88,97,8.14,BR,1702256421
181,lihue,21.9789,-159.3672,26.92,80,0,3.51,US,1702256549
182,weno,7.4515,151.8468,30.97,70,75,3.6,FM,1702256550
183,tambacounda,13.7539,-13.7586,25.22,14,100,2.92,SN,1702256550
184,bovalino,38.149,16.174,15.75,71,7,7.15,IT,1702256551
185,beni mellal,32.3373,-6.3498,18.26,36,21,1.21,MA,1702256551
186,nchelenge,-9.3451,28.734,21.93,88,100,2.38,ZM,1702256551
187,nandaime,11.757,-86.0529,27.48,85,21,3.79,NI,1702256551
188,nagqu,31.5,92.0,-14.07,47,0,1.78,CN,1702256552
189,kenai,60.5544,-151.2583,-4.36,92,100,7.72,US,1702256542
190,connell,46.6635,-118.8611,3.89,99,76,0.74,US,1702256552
191,saint-philippe,-21.3585,55.7679,23.77,85,50,5.19,RE,1702256552
192,manokwari,-0.8667,134.0833,28.06,73,100,2.31,ID,1702256553
193,talusan,7.4267,122.8103,27.37,77,59,1.6,PH,1702256553
194,badger,64.8,-147.5333,-23.69,76,0,0.0,US,1702256409
195,agnibilekrou,7.1344,-3.2047,21.43,70,100,0.84,CI,1702256554
196,vorgashor,67.5833,63.95,-24.95,100,100,3.55,RU,1702256554
197,patos,-7.0244,-37.28,27.08,55,0,7.0,BR,1702256554
198,bandon,51.7469,-8.7425,8.77,87,3,5.35,IE,1702256554
199,laguna,38.421,-121.4238,13.13,64,0,2.06,US,1702256472
200,tadine,-21.55,167.8833,25.28,57,91,7.45,NC,1702256555
201,qaisumah,28.3112,46.1273,14.98,38,0,2.06,SA,1702256542
202,ribeira grande,38.5167,-28.7,17.1,75,100,7.6,PT,1702256555
203,happy valley-goose bay,53.3168,-60.3315,3.17,65,100,7.2,CA,1702256556
204,watford city,47.8022,-103.2832,-5.08,100,0,2.06,US,1702256556
205,kapuskasing,49.4169,-82.4331,-5.95,86,100,5.14,CA,1702256361
206,valdivia,-39.8142,-73.2459,18.05,85,100,0.37,CL,1702256415
207,san andres,12.5847,-81.7006,29.01,84,20,5.14,CO,1702256556
208,gobabis,-22.45,18.9667,19.82,40,0,3.85,NA,1702256557
209,jwaneng,-24.6004,24.7303,17.78,82,100,4.76,BW,1702256557
210,manta,-0.95,-80.7333,26.88,69,40,5.14,EC,1702256557
211,sulak,43.2734,47.5146,3.96,80,100,6.03,RU,1702256557
212,ad dabbah,18.05,30.95,21.0,20,80,3.7,SD,1702256558
213,'ain el hadjar,34.7585,0.1453,5.63,48,0,3.43,DZ,1702256558
214,morehead city,34.7229,-76.726,20.03,88,100,7.72,US,1702256405
215,arti,56.4234,58.5328,-27.03,92,6,2.95,RU,1702256558
216,pasni,25.2631,63.471,22.76,28,22,3.26,PK,1702256559
217,amga,60.8953,131.9608,-27.29,91,100,3.68,RU,1702256559
218,rezh,57.37,61.4043,-32.91,98,6,2.09,RU,1702256560
219,carnarvon,-24.8667,113.6333,29.57,24,0,9.07,AU,1702256560
220,cidreira,-30.1811,-50.2056,19.98,94,100,8.5,BR,1702256559
221,sittwe,20.15,92.9,19.41,84,1,2.53,MM,1702256561
222,lucerne valley,34.4439,-116.9678,17.05,24,91,0.58,US,1702256523
223,nikolayevsk-on-amure,53.1406,140.73,-20.44,90,100,6.15,RU,1702256561
224,simanggang,1.2472,111.4528,24.99,94,20,1.54,MY,1702256562
225,nabire,-3.3667,135.4833,30.28,66,74,1.12,ID,1702256562
226,uturoa,-16.7333,-151.4333,27.05,80,22,10.09,PF,1702256515
227,sitka,57.0531,-135.33,1.75,82,100,1.99,US,1702256543
228,heroica caborca,30.7167,-112.15,17.15,14,0,3.72,MX,1702256562
229,neftcala,39.3742,49.2472,10.8,78,78,7.78,AZ,1702256563
230,brokopondo,4.75,-55.1667,26.35,81,98,3.66,SR,1702256563
231,egilsstadir,65.2653,-14.3948,-6.05,100,100,0.51,IS,1702256563
232,howrah,22.5892,88.3103,16.0,88,0,0.0,IN,1702256531
233,sao joao da barra,-21.6403,-41.0511,23.05,80,60,2.08,BR,1702256564
234,yuzhno-kurilsk,44.0306,145.8556,0.76,76,99,6.37,RU,1702256564
235,nova vicosa,-17.8919,-39.3719,24.74,84,5,3.17,BR,1702256495
236,vilyeyka,54.4896,26.9062,-1.75,94,100,5.03,BY,1702256565
237,pisco,-13.7,-76.2167,21.03,78,0,6.17,PE,1702256265
238,sabinas,27.85,-101.1167,12.52,25,0,3.24,MX,1702256453
239,chagoda,59.164,35.3285,-10.39,94,100,3.34,RU,1702256565
240,dunedin,-45.8742,170.5036,16.62,59,33,3.03,NZ,1702256566
241,tshabong,-26.05,22.45,20.11,21,4,3.53,BW,1702256566
242,changli,39.7042,119.1506,-4.1,32,100,2.97,CN,1702256566
243,diglur,18.55,77.6,17.15,68,24,1.3,IN,1702256567
244,pemba,-12.974,40.5178,26.99,83,56,3.1,MZ,1702256567
245,mossel bay,-34.1831,22.146,16.98,81,3,2.7,ZA,1702256568
246,kyzyl-mazhalyk,51.1333,90.6,-33.94,93,29,0.45,RU,1702256568
247,saudarkrokur,65.7461,-19.6394,-2.58,88,100,4.7,IS,1702256568
248,sungai penuh,-2.0833,101.3833,21.06,90,77,0.27,ID,1702256569
249,vanimo,-2.6741,141.3028,27.23,81,98,4.02,PG,1702256453
250,revda,56.801,59.9303,-34.49,100,80,1.05,RU,1702256569
251,machico,32.7,-16.7667,20.95,84,75,1.54,PT,1702256570
252,rosarito,32.3333,-117.0333,21.24,52,97,5.09,MX,1702256414
253,talcahuano,-36.7167,-73.1167,14.82,72,0,6.17,CL,1702256416
254,tindouf,27.6711,-8.1474,14.25,33,0,2.06,DZ,1702256571
255,porto novo,6.4965,2.6036,27.9,83,0,1.86,BJ,1702256572
256,hengchun,22.0042,120.7439,26.86,79,14,4.28,TW,1702256536
257,businga,3.3333,20.8833,22.27,85,99,0.59,CD,1702256572
258,uliastay,47.7417,96.8444,-23.57,79,3,2.9,MN,1702256572
259,luganville,-15.5333,167.1667,26.88,65,100,5.01,VU,1702256573
260,elliot lake,46.3834,-82.6331,-3.82,84,99,2.81,CA,1702256568
261,tongshan,34.1805,117.1571,0.78,94,100,4.34,CN,1702256573
262,talnakh,69.4865,88.3972,-26.0,99,100,4.43,RU,1702256574
263,aykhal,66.0,111.5,-27.66,99,100,2.33,RU,1702256574
264,lompoc,34.6391,-120.4579,19.45,56,0,2.06,US,1702256574
265,nemuro,43.3236,145.575,0.45,48,28,6.5,JP,1702256574
266,ma'an,26.9775,110.7211,11.17,86,100,4.52,CN,1702256575
267,taltal,-25.4,-70.4833,16.08,84,98,0.7,CL,1702256421
268,kone,-21.0595,164.8658,31.0,39,100,2.35,NC,1702256525
269,malvan,16.0667,73.4667,24.79,66,37,2.55,IN,1702256576
270,beyneu,45.3167,55.2,-6.56,47,79,9.68,KZ,1702256576
271,thinadhoo,0.5333,72.9333,27.82,76,90,2.01,MV,1702256576
272,atbasar,51.8,68.3333,-30.35,97,62,3.65,KZ,1702256577
273,sakakah,29.9697,40.2064,13.76,49,100,4.46,SA,1702256577
274,bikenibeu village,1.3673,173.1241,28.98,84,75,2.57,KI,1702256578
275,tarusa,54.7233,37.1767,-7.61,95,100,4.51,RU,1702256578
276,miri,4.4148,114.0089,25.08,100,40,1.03,MY,1702256578
277,mhangura,-16.8939,30.1683,23.61,43,81,2.29,ZW,1702256579
278,sanandaj,35.3144,46.9923,0.01,75,0,0.0,IR,1702256289
279,paita,-5.0892,-81.1144,21.76,79,2,7.02,PE,1702256579
280,kolonia town,6.964,158.206,32.06,70,40,5.14,FM,1702256580
281,alice springs,-23.7,133.8833,16.75,45,100,5.66,AU,1702256580
282,picos,-7.0769,-41.4669,27.69,56,76,1.09,BR,1702256580
283,sitia,35.2,26.0986,13.32,76,100,2.05,GR,1702256580
284,nouadhibou,20.931,-17.0347,21.99,53,5,5.14,MR,1702256580
285,levuka,50.1834,-105.4011,-4.1,76,12,3.01,CA,1702256581
286,birjand,32.8663,59.2211,0.26,47,0,2.06,IR,1702256581
287,anna regina,7.2644,-58.5077,25.7,85,0,2.73,GY,1702256581
288,puyang chengguanzhen,35.7028,115.0053,-3.72,92,100,6.56,CN,1702256582
289,khabez,44.0434,41.772,3.32,76,14,1.44,RU,1702256582
290,klyuchi,52.2667,79.1667,-21.73,89,17,2.74,RU,1702256583
291,rehoboth,-23.3167,17.0833,20.39,11,0,4.39,NA,1702256583
292,kurumkan,54.3,110.3,-26.6,90,28,1.79,RU,1702256583
293,berezovyy,51.6667,135.7,-22.07,56,4,3.48,RU,1702256584
294,magway,20.15,94.9167,21.22,80,13,2.26,MM,1702256584
295,puerto cortez,15.8333,-87.95,26.23,88,8,2.75,HN,1702256584
296,dungarpur,23.8333,73.7167,16.72,48,0,2.2,IN,1702256584
297,jaciara,-15.9653,-54.9683,23.69,81,100,0.46,BR,1702256585
298,ambon,-3.6954,128.1814,30.08,70,40,4.12,ID,1702256585
299,inhambane,-23.865,35.3833,25.62,92,70,4.72,MZ,1702256585
300,hawaiian paradise park,19.5933,-154.9731,26.13,94,100,1.54,US,1702256586
301,nha trang,12.25,109.1833,26.0,80,88,2.55,VN,1702256586
302,quirinopolis,-18.4483,-50.4517,24.98,73,100,1.33,BR,1702256586
303,taperoa,-7.2075,-36.8267,23.56,64,0,6.61,BR,1702256586
304,walvis bay,-22.9575,14.5053,16.72,77,47,3.6,NA,1702256587
305,narathiwat,6.3333,101.75,27.84,86,15,1.17,TH,1702256587
306,polyarnyy,69.1989,33.4478,-13.01,89,83,7.3,RU,1702256494
307,richards bay,-28.783,32.0377,19.2,93,100,4.3,ZA,1702256587
308,duba,27.3513,35.6901,24.03,58,100,1.1,SA,1702256588
309,road town,18.4167,-64.6167,27.05,74,40,5.14,VG,1702256588
310,stornoway,58.2093,-6.3865,7.98,86,75,3.6,GB,1702256588
311,krasnovishersk,60.4078,57.082,-31.61,100,63,1.08,RU,1702256588
312,nema,57.5067,50.5011,-24.18,95,100,3.1,RU,1702256589
313,kingston,17.997,-76.7936,28.53,75,20,7.72,JM,1702256409
314,noumea,-22.2763,166.4572,29.99,99,100,9.53,NC,1702256139
315,iaciara,-14.0958,-46.6317,23.49,71,72,0.92,BR,1702256590
316,cururupu,-1.8283,-44.8683,25.75,82,100,2.21,BR,1702256590
317,kourou,5.1552,-52.6478,26.03,89,77,2.69,GF,1702256525
318,maceio,-9.6658,-35.7353,23.69,100,0,1.03,BR,1702256389
319,tura,25.5198,90.2201,13.99,62,0,1.43,IN,1702256507
320,kaa-khem,51.6833,94.7333,-34.22,98,99,0.65,RU,1702256591
321,gornji milanovac,44.0333,20.45,-0.95,96,93,1.31,RS,1702256591
322,cedar rapids,42.0083,-91.6441,-2.89,83,0,1.54,US,1702256539
323,sangkhla buri,15.1555,98.4536,24.18,87,39,0.23,TH,1702256591
324,"poblacion, san felipe",14.5665,121.0308,30.98,69,20,3.58,PH,1702256592
325,igarka,67.4667,86.5833,-29.94,98,100,2.45,RU,1702256592
326,petropavlovsk-kamchatsky,53.0452,158.6483,0.33,95,75,6.71,RU,1702256593
327,al mutayrifi,25.4788,49.5576,15.19,22,100,1.94,SA,1702256593
328,majuro,7.0897,171.3803,29.98,74,75,8.23,MH,1702256373
329,piranhas,-16.4269,-51.8222,24.02,77,100,3.53,BR,1702256594
330,saacow,1.6279,42.4407,24.85,81,6,3.38,SO,1702256594
331,pizarro,4.9533,-77.366,26.27,91,100,2.66,CO,1702256515
332,la punta,-33.1837,-66.3127,24.05,35,8,7.0,AR,1702256595
333,gadzhiyevo,69.2551,33.3362,-13.9,91,88,7.06,RU,1702256595
334,east ballina,-28.8667,153.5833,29.33,58,62,4.24,AU,1702256596
335,natal,-5.795,-35.2094,27.12,74,20,3.09,BR,1702256403
336,la ronge,55.1001,-105.2842,-3.86,74,100,3.6,CA,1702256597
337,boa vista,2.8197,-60.6733,29.99,58,40,3.6,BR,1702256324
338,"laikit, laikit ii (dimembe)",1.4792,124.9735,30.47,58,20,2.06,ID,1702256598
339,ebon,4.582,168.6964,28.06,80,11,4.84,MH,1702256598
340,beloyarskiy,63.7119,66.6722,-35.0,100,44,1.34,RU,1702256598
341,taunsa,30.7048,70.6505,13.08,29,0,0.81,PK,1702256599
342,pangody,65.85,74.4859,-32.03,97,100,3.83,RU,1702256599
343,novyy urgal,51.0736,132.5642,-26.05,82,10,1.4,RU,1702256599
344,narvik,68.4384,17.4272,-4.33,76,99,2.4,NO,1702256600
345,praia da vitoria,38.7333,-27.0667,17.64,82,0,6.08,PT,1702256600
346,gaiman,-43.2897,-65.4929,22.64,34,95,12.12,AR,1702256600
347,nuuk,64.1835,-51.7216,-2.66,74,75,1.54,GL,1702256601
348,reggane,26.7158,0.1714,15.18,45,0,5.37,DZ,1702256601
349,voskresenskoye,56.8381,45.4317,-17.86,85,100,4.43,RU,1702256601
350,fort bragg,35.139,-79.006,18.91,94,100,4.12,US,1702256601
351,hithadhoo,-0.6,73.0833,27.8,76,99,1.92,MV,1702256601
352,kapa'a,22.0752,-159.319,27.33,79,1,2.68,US,1702256501
353,holualoa,19.6228,-155.9522,25.99,77,40,2.57,US,1702256602
354,gidole,5.65,37.3667,15.69,58,69,1.72,ET,1702256602
355,karratha,-20.7377,116.8463,29.06,18,6,10.11,AU,1702256603
356,shakawe,-18.3667,21.85,20.77,85,100,2.75,BW,1702256603
357,shimoda,34.6667,138.95,16.17,61,100,3.7,JP,1702256604
358,harstad,68.799,16.5293,-1.58,83,88,3.85,NO,1702256604
359,torghay,49.6339,63.4981,-21.52,78,7,7.01,KZ,1702256605
360,las palmas de gran canaria,28.0997,-15.4134,24.32,68,0,1.54,ES,1702256605
361,menongue,-14.6585,17.691,20.36,62,100,2.68,AO,1702256605
362,pokhara,28.2333,83.9833,11.65,51,5,2.02,NP,1702256606
363,jayapura,-2.5333,140.7,31.66,67,80,1.65,ID,1702256606
364,igrim,63.1906,64.4162,-34.19,99,16,1.77,RU,1702256606
365,cockburn town,21.4612,-71.1419,25.98,69,40,6.69,TC,1702256606
366,port lincoln,-34.7333,135.8667,17.26,93,100,6.92,AU,1702256562
367,bubaque,11.2833,-15.8333,28.16,63,99,4.69,GW,1702256607
368,inarajan village,13.2736,144.7484,31.54,83,100,6.98,GU,1702256607
369,prince george,53.9166,-122.753,-0.4,94,20,2.06,CA,1702256413
370,malanje,-9.5402,16.341,17.75,99,100,1.17,AO,1702256608
371,mana,5.6592,-53.7767,25.77,90,37,3.44,GF,1702256608
372,celestun,20.8667,-90.4,23.7,84,100,9.47,MX,1702256608
373,zaki biam,7.5167,9.6167,23.03,20,6,2.38,NG,1702256609
374,dawson creek,55.7666,-120.2362,-0.2,64,75,1.54,CA,1702256609
375,ambovombe,-25.1667,46.0833,23.7,86,31,1.27,MG,1702256609
376,alofi,-19.0595,-169.9187,24.94,94,100,5.66,NU,1702256610
377,gueret,46.1667,1.8667,12.15,98,100,4.35,FR,1702256610
378,mahina,-17.5065,-149.489,30.87,66,40,3.09,PF,1702256610
379,falmouth,50.1544,-5.0711,11.5,87,100,7.72,GB,1702256610
380,hanzhong,33.0728,107.0303,8.26,82,84,1.68,CN,1702256611
381,viveiro,43.6623,-7.5934,17.91,77,100,8.33,ES,1702256611
382,colonia,50.9333,6.95,11.7,76,20,5.14,DE,1702256608
383,rakops,-21.0167,24.3333,20.42,81,91,3.57,BW,1702256611
384,portland,45.5234,-122.6762,12.47,95,100,3.58,US,1702256149
385,nago,26.5881,127.9761,26.47,72,7,3.55,JP,1702256612
386,pursat,12.3333,103.6667,26.59,73,79,0.49,KH,1702256612
387,enewetak,11.3474,162.3373,27.72,76,100,8.19,MH,1702256612
388,heinola,61.2056,26.0381,-10.0,97,98,2.91,FI,1702256613
389,darlington,54.5243,-1.5504,7.04,88,100,0.45,GB,1702256613
390,badnawar,23.0167,75.2167,15.92,64,0,2.63,IN,1702256613
391,puerto madero,14.7208,-92.4215,26.11,100,20,0.0,MX,1702256614
392,salinopolis,-0.6136,-47.3561,27.06,79,21,5.3,BR,1702256614
393,shohimardon,39.9839,71.8028,-4.57,41,100,2.69,UZ,1702256614
394,vrangel',42.7297,133.0839,-10.48,43,100,4.47,RU,1702256614
395,dingli,35.8614,14.3822,15.45,77,0,8.23,MT,1702256615
396,yelizovo,53.1873,158.3805,1.08,100,75,5.0,RU,1702256615
397,al jawf,29.5,38.75,18.4,43,100,3.89,SA,1702256615
398,moussoro,13.6408,16.4901,19.76,25,79,5.47,TD,1702256616
399,terenozek,45.05,64.9833,-11.52,31,11,7.01,KZ,1702256616
400,platteville,42.7342,-90.4785,-2.95,76,100,1.54,US,1702256616
401,necochea,-38.5473,-58.7368,17.56,69,0,5.87,AR,1702256616
402,zhumadian,32.9794,114.0294,-1.45,91,100,6.43,CN,1702256617
403,puerto santa,-8.9906,-78.6456,19.47,87,100,4.09,PE,1702256617
404,lakatoro,-16.0999,167.4164,27.54,58,100,7.33,VU,1702256617
405,wewak,-3.5534,143.6268,28.02,77,96,2.33,PG,1702256617
406,punta alta,-38.8759,-62.0736,28.93,31,99,6.55,AR,1702256578
407,zouerate,22.7187,-12.4521,18.53,21,0,4.91,MR,1702256618
408,porto torres,40.835,8.3972,8.1,83,13,4.39,IT,1702256618
409,boende,-0.2167,20.8667,22.19,95,100,0.4,CD,1702256618
410,kristiansund,63.1115,7.732,0.36,74,40,2.57,NO,1702256619
411,aketi,2.7388,23.7833,22.0,96,100,0.45,CD,1702256619
412,laminusa,5.5549,120.9136,27.64,76,90,1.16,PH,1702256619
413,nkongsamba,4.9547,9.9404,19.22,88,91,1.23,CM,1702256619
414,vanino,49.0869,140.2543,-21.71,63,0,6.88,RU,1702256602
415,castillos,-34.1667,-53.8333,15.67,96,5,2.31,UY,1702256620
416,cartagena del chaira,1.3349,-74.8429,23.06,98,40,0.05,CO,1702256620
417,altus,34.6381,-99.334,7.04,39,0,5.66,US,1702256620
418,deqen,29.9618,90.7188,-8.36,42,0,2.93,CN,1702256620
419,kanchanaburi,14.6333,99.1,25.24,77,13,0.26,TH,1702256621
420,barcellona pozzo di gotto,38.1476,15.2105,15.73,71,10,4.47,IT,1702256621
421,crane,31.3974,-102.3501,8.87,23,0,1.55,US,1702256621
422,galesong,-5.3166,119.3661,26.01,76,100,2.83,ID,1702256621
423,khamis mushait,18.3064,42.7292,8.34,36,0,0.0,SA,1702256622
424,at taj,24.2049,23.2857,11.43,57,0,4.35,LY,1702256622
425,guerrero negro,27.9769,-114.0611,19.98,39,0,3.56,MX,1702256622
426,whitecourt,54.1502,-115.6855,3.58,65,75,4.63,CA,1702256432
427,tarakan,3.3,117.6333,27.72,100,75,2.57,ID,1702256622
428,pearsall,28.8922,-99.095,9.78,22,0,2.64,US,1702256623
429,bereznik,62.8551,42.7072,-14.38,93,100,5.11,RU,1702256623
430,ndjole,-0.1783,10.7649,23.87,98,100,0.43,GA,1702256623
431,barra de santo antonio,-9.4047,-35.5072,23.6,80,0,4.02,BR,1702256624
432,jiuquan,39.7432,98.5174,-2.34,47,94,2.52,CN,1702256624
433,masaki-cho,33.7876,132.7112,15.27,88,75,1.54,JP,1702256624
434,nishinoomote,30.7333,131.0,18.31,94,75,6.69,JP,1702256624
435,moskovskiy,55.5991,37.355,-8.94,79,100,5.0,RU,1702256625
436,thunder bay,48.4001,-89.3168,-4.01,68,100,4.12,CA,1702256625
437,page,36.9147,-111.4558,3.88,30,0,0.0,US,1702256625
438,cabo san lucas,22.8909,-109.9124,24.61,61,0,2.55,MX,1702256148
439,emerald,-23.5333,148.1667,23.52,65,100,7.19,AU,1702256456
440,zhangatas,43.5667,69.75,-6.72,83,100,1.39,KZ,1702256626
441,christchurch,-43.5333,172.6333,23.63,45,9,8.23,NZ,1702256247
442,marmara ereglisi,40.97,27.9553,6.05,93,75,3.6,TR,1702256626
443,shanhaiguan,39.9988,119.7564,-4.6,25,100,6.55,CN,1702256626
444,kununurra,-15.7667,128.7333,29.99,45,30,6.17,AU,1702256574
445,talavera de la reina,39.9635,-4.8308,8.98,95,1,0.94,ES,1702256627
446,den burg,53.0542,4.7972,9.99,88,100,8.23,NL,1702256627
447,bemidji,47.4736,-94.8803,-4.97,98,100,0.0,US,1702256427
448,camarinas,43.1311,-9.1817,18.29,86,100,10.98,ES,1702256627
449,balabac,7.9868,117.0645,28.4,77,100,6.0,PH,1702256628
450,hsinchu,24.8036,120.9686,24.36,89,84,0.45,TW,1702256393
451,nioki,-2.7167,17.6833,22.15,93,96,0.72,CD,1702256628
452,cascais,38.6979,-9.4215,16.7,97,9,4.02,PT,1702256628
453,zhangye,38.9342,100.4517,0.74,39,100,3.47,CN,1702256504
454,altamira,-3.2033,-52.2064,24.46,88,71,0.6,BR,1702256594
455,brandon,27.9378,-82.2859,20.16,94,0,1.54,US,1702256464
456,riosucio,5.4216,-75.7032,16.67,97,100,0.38,CO,1702256629
457,vernon,50.2581,-119.2691,4.61,92,100,2.57,CA,1702256477
458,bam,29.106,58.357,12.29,23,17,1.17,IR,1702256630
459,juquia,-24.3208,-47.6347,20.71,99,100,0.5,BR,1702256630
460,roma,43.2128,-75.4557,4.97,95,100,2.06,US,1702256623
461,strazhitsa,43.2333,25.9667,-0.11,95,99,1.46,BG,1702256631
462,sarkand,45.41,79.9186,-6.68,89,100,0.3,KZ,1702256631
463,la tuque,47.4334,-72.7824,2.14,93,100,1.03,CA,1702256415
464,chonchi,-42.6128,-73.8092,13.4,92,100,1.17,CL,1702256632
465,itoman,26.1247,127.6694,26.43,75,75,4.63,JP,1702256632
466,malabar,-33.9667,151.25,33.17,70,20,5.66,AU,1702256632
467,mahroni,24.5862,78.7288,14.32,62,0,1.11,IN,1702256633
468,sandnessjoen,66.0217,12.6316,-5.71,80,39,7.32,NO,1702256603
469,caleta de carquin,-11.0925,-77.6267,20.51,83,100,4.29,PE,1702256633
470,starobin,52.7267,27.4606,-0.77,95,100,5.09,BY,1702256633
471,awjilah,29.1081,21.2869,13.3,68,0,3.86,LY,1702256634
472,cide,41.8921,33.0044,10.63,73,100,2.05,TR,1702256634
473,novodvinsk,64.4165,40.8122,-16.14,91,100,4.76,RU,1702256634
474,tongliao,43.6125,122.2653,-14.14,70,100,3.95,CN,1702256634
475,turabah,21.2141,41.6331,14.32,31,6,3.62,SA,1702256634
476,phang nga,8.4509,98.5298,28.02,90,22,1.61,TH,1702256635
477,nova sintra,14.8667,-24.7167,22.97,74,100,3.81,CV,1702256549
478,kozhevnikovo,56.2589,83.9714,-27.92,93,26,3.63,RU,1702256635
479,biltine,14.5333,20.9167,19.01,19,36,2.6,TD,1702256542
480,drayton valley,53.2168,-114.9854,-1.45,78,100,2.88,CA,1702256454
481,saint-pierre,-21.3393,55.4781,23.82,78,0,1.54,RE,1702256636
482,la sarre,48.8002,-79.1996,-6.16,89,98,3.46,CA,1702256580
483,fisterra,42.9049,-9.2629,18.19,86,100,10.32,ES,1702256636
484,quiberon,47.4841,-3.1196,14.55,94,100,2.24,FR,1702256637
485,pristen',51.2355,36.6959,-4.15,95,100,5.1,RU,1702256637
486,brisas de zicatela,15.8369,-97.0419,27.29,61,0,1.54,MX,1702256637
487,namsos,64.4662,11.4957,-1.97,74,20,6.17,NO,1702256637
488,choyr,46.3611,108.3611,-17.22,97,100,1.8,MN,1702256638
489,katsuyama,36.0617,136.501,9.2,71,0,0.76,JP,1702256638
490,selkirk,50.1436,-96.8845,-6.96,95,24,2.63,CA,1702256500
491,san juan de miraflores,-12.1629,-76.9635,21.76,76,77,3.53,PE,1702256638
492,koz'modem'yansk,56.3367,46.5711,-19.61,86,100,4.46,RU,1702256639
493,fruitland,38.3221,-75.6202,18.3,96,100,6.69,US,1702256639
494,ulladulla,-35.35,150.4667,29.87,68,100,3.3,AU,1702256554
495,nongstoin,25.5167,91.2667,8.88,90,0,2.03,IN,1702256639
496,khanpur,28.6453,70.6567,15.81,22,0,3.02,PK,1702256639
497,pak phanang,8.3511,100.202,24.01,80,30,2.2,TH,1702256640
498,mount pleasant,32.7941,-79.8626,19.08,97,0,3.6,US,1702256579
499,chegdomyn,51.1167,133.0167,-25.87,85,64,1.3,RU,1702256640
500,los llanos de aridane,28.6585,-17.9182,20.07,40,0,4.92,ES,1702256640
501,iquique,-20.2208,-70.1431,20.02,72,100,0.8,CL,1702256639
502,grand-bassam,5.2118,-3.7388,27.98,83,9,3.05,CI,1702256641
503,belomorsk,64.5232,34.7668,-12.62,90,100,3.58,RU,1702256641
504,panama city beach,30.1766,-85.8055,12.01,84,100,2.68,US,1702256492
505,ixtapa,20.7,-105.2,26.24,83,100,2.06,MX,1702256641
506,manoc-manoc,11.9416,121.9428,27.43,76,100,4.99,PH,1702256642
507,murun-kuren,49.6342,100.1625,-21.01,93,100,0.21,MN,1702256642
508,kyotera,-0.6156,31.5175,16.88,94,71,1.59,UG,1702256642
509,tapes,-30.6733,-51.3958,20.58,92,91,5.26,BR,1702256643
510,gwanda,-20.9333,29.0,19.68,88,100,4.03,ZW,1702256643
511,callao,-12.0667,-77.15,22.62,77,75,6.69,PE,1702256644
512,zaozersk,69.4005,32.4476,-15.43,92,77,6.07,RU,1702256645
513,san jose de jachal,-30.2406,-68.7469,23.26,39,0,1.84,AR,1702256646
514,flin flon,54.7682,-101.865,-9.09,92,100,4.63,CA,1702256646
515,tamiahua,21.2667,-97.45,17.0,55,76,4.75,MX,1702256646
516,kampong speu,11.5,104.3333,26.01,79,82,0.93,KH,1702256647
517,howard springs,-12.497,131.047,30.55,91,12,2.32,AU,1702256648
518,kargil,34.5667,76.1,-6.73,33,100,0.73,IN,1702256648
519,warrnambool,-38.3833,142.4833,18.08,78,100,7.93,AU,1702256494
520,morro da fumaca,-28.6508,-49.21,19.25,97,97,3.6,BR,1702256649
521,gua musang,4.8823,101.9644,24.97,91,77,0.62,MY,1702256650
522,las palmas,28.4204,-14.0131,17.44,45,0,1.54,ES,1702256650
523,paramonga,-10.6667,-77.8333,20.03,86,97,3.76,PE,1702256650
524,robertsport,6.7533,-11.3686,27.44,82,97,3.14,LR,1702256651
525,okoneshnikovo,54.8377,75.0834,-27.72,99,93,3.17,RU,1702256651
526,bengkulu,-3.8004,102.2655,25.62,79,89,0.79,ID,1702256651
527,maua,-23.6678,-46.4614,19.44,96,100,2.95,BR,1702256651
528,flying fish cove,-10.4217,105.6791,26.82,73,40,3.6,CX,1702256652
529,illizi,26.4833,8.4667,9.89,72,21,1.67,DZ,1702256652
530,linfen,36.0889,111.5189,-1.51,92,93,1.39,CN,1702256653
531,dawei,14.0833,98.2,25.31,78,56,1.04,MM,1702256653
532,qarazhal,48.0078,70.7903,-20.93,80,0,4.81,KZ,1702256653
533,souillac,-20.5167,57.5167,25.21,83,40,2.57,MU,1702256462
534,daru,-9.0763,143.2092,26.36,78,100,3.3,PG,1702256654
535,darwin,-12.4611,130.8418,30.59,77,75,3.6,AU,1702256415
536,leh,34.1667,77.5833,-9.61,38,98,1.77,IN,1702256655
537,narasannapeta,18.4167,84.05,20.2,82,9,2.55,IN,1702256655
538,wagar,16.1525,36.2032,24.25,57,2,2.91,SD,1702256656
539,rumonge,-3.9736,29.4386,22.32,84,100,1.3,BI,1702256656
540,harper,4.375,-7.7169,26.48,83,5,2.61,LR,1702256656
541,makarov,48.6333,142.8,-13.24,71,64,6.59,RU,1702256656
542,realeza,-25.7689,-53.5325,18.73,98,13,0.84,BR,1702256657
543,newman,37.3138,-121.0208,14.13,43,100,0.89,US,1702256657
544,'alaqahdari dishu,30.4374,63.313,10.71,35,0,0.44,AF,1702256657
545,antofagasta,-23.65,-70.4,18.6,78,10,1.04,CL,1702256658
546,fabens,31.5023,-106.1586,10.32,23,0,1.95,US,1702256658
547,ozernyy,55.5802,32.4127,-4.45,95,100,3.27,RU,1702256659
548,arteche,12.2645,125.4048,27.34,87,100,3.99,PH,1702256659
549,candelaria,13.9311,121.4233,27.99,75,90,2.43,PH,1702256659
550,casilda,-33.0442,-61.1681,23.21,45,0,2.25,AR,1702256660
551,maloye ganyushkino,46.6,49.2667,-4.25,42,77,8.01,KZ,1702256660
